City_ID,City,Lat,Lng,Max Temp,Humidity,Cloudiness,Wind Speed,Country,Date
0,thompson,55.7435,-97.8558,-20.91,77,100,2.57,CA,1704605028
1,simian,44.6142,22.7072,6.62,58,99,2.66,RO,1704605028
2,talnakh,69.4865,88.3972,-21.0,97,100,4.48,RU,1704605029
3,puerto ayora,-0.7393,-90.3518,25.31,94,83,0.89,EC,1704605029
4,dabakala,8.3667,-4.4333,25.55,68,57,2.17,CI,1704605030
5,margaret river,-33.95,115.0667,25.66,54,57,6.06,AU,1704604791
6,hamilton,39.1834,-84.5333,2.47,93,100,2.06,US,1704605030
7,ilulissat,69.2167,-51.1,-8.99,73,100,3.09,GL,1704605031
8,whitehorse,60.7161,-135.0538,-19.55,83,40,6.17,CA,1704605022
9,albany,42.6001,-73.9662,-1.54,89,100,2.99,US,1704604570
10,masuguru,-11.3667,38.4167,24.26,95,100,0.19,TZ,1704605032
11,tura,25.5198,90.2201,23.29,34,0,1.25,IN,1704605032
12,st. john's,47.5649,-52.7093,-10.47,81,75,13.38,CA,1704605033
13,hawaiian paradise park,19.5933,-154.9731,22.24,95,40,2.06,US,1704605034
14,adamstown,-25.066,-130.1015,22.63,73,100,6.76,PN,1704605034
15,kavieng,-2.5744,150.7967,29.03,75,67,4.05,PG,1704605034
16,blackmans bay,-43.0167,147.3167,24.07,80,100,0.46,AU,1704605034
17,souk ahras,36.2864,7.9511,4.58,88,85,6.61,DZ,1704605035
18,quincy,42.2529,-71.0023,2.75,88,100,3.13,US,1704605036
19,gadzhiyevo,69.2551,33.3362,-6.39,83,98,6.59,RU,1704605036
20,buta,2.7858,24.73,18.14,55,11,0.46,CD,1704605037
21,puerto natales,-51.7236,-72.4875,8.08,83,97,1.95,CL,1704604944
22,yuzhno-kurilsk,44.0306,145.8556,-1.46,79,68,2.62,RU,1704605037
23,grytviken,-54.2811,-36.5092,3.73,91,28,6.21,GS,1704605038
24,afaahiti,-17.75,-149.2833,26.93,78,100,3.83,PF,1704605038
25,camaqua,-30.8511,-51.8122,20.28,98,11,1.16,BR,1704605039
26,fale old settlement,-9.3852,-171.2468,29.3,68,93,3.26,TK,1704605039
27,ottawa,45.4112,-75.6981,-9.42,86,100,6.17,CA,1704604800
28,bilibino,68.0546,166.4372,-34.65,100,100,0.86,RU,1704605040
29,talcahuano,-36.7167,-73.1167,16.82,88,75,2.57,CL,1704605040
30,waitangi,-43.9535,-176.5597,15.46,85,47,1.34,NZ,1704605041
31,wailua homesteads,22.0669,-159.378,22.44,77,0,1.54,US,1704605041
32,boyette,27.8175,-82.2226,19.67,97,45,2.39,US,1704605042
33,lengshuitan,26.4111,111.5956,13.11,69,98,1.59,CN,1704604744
34,college,64.8569,-147.8028,-20.31,74,20,4.12,US,1704605043
35,tsiombe,-25.3,45.4833,26.78,76,44,2.47,MG,1704605044
36,port-aux-francais,-49.35,70.2167,5.91,79,98,8.2,TF,1704605045
37,ribeira grande,38.5167,-28.7,14.32,80,100,2.68,PT,1704605045
38,hermanus,-34.4187,19.2345,16.01,86,100,2.05,ZA,1704605046
39,nushki,29.5542,66.0215,15.29,32,33,2.05,PK,1704605046
40,vadso,70.0744,29.7487,-7.91,67,72,5.66,NO,1704605046
41,svetlyy,54.675,20.1347,-12.02,92,77,4.67,RU,1704605046
42,mugia,43.1041,-9.2179,9.0,73,100,4.0,ES,1704605047
43,san patricio,28.017,-97.5169,15.91,58,83,2.57,US,1704605048
44,qamdo,31.1667,97.2333,-3.75,29,5,1.56,CN,1704605048
45,piti village,13.4626,144.6933,30.17,77,40,6.69,GU,1704605049
46,eufaula,31.8913,-85.1455,6.64,90,0,0.0,US,1704605049
47,alliston,44.1501,-79.8663,-3.98,84,100,2.57,CA,1704605049
48,aasiaat,68.7098,-52.8699,-11.32,82,100,1.71,GL,1704605049
49,punta arenas,-53.15,-70.9167,9.06,76,0,5.66,CL,1704605050
50,jalai nur,49.45,117.7,-20.77,82,80,4.04,CN,1704605050
51,enewetak,11.3474,162.3373,27.2,66,74,9.01,MH,1704605050
52,ambato boeny,-16.4667,46.7167,28.98,74,100,0.9,MG,1704605051
53,tiksi,71.6872,128.8694,-34.15,98,38,3.22,RU,1704605052
54,kodiak,57.79,-152.4072,4.73,93,100,10.8,US,1704605052
55,quixada,-4.9714,-39.0153,24.42,86,18,2.45,BR,1704604783
56,yellowknife,62.456,-114.3525,-34.28,75,0,1.54,CA,1704604938
57,linhares,-19.3911,-40.0722,22.6,96,78,1.24,BR,1704605053
58,paradip garh,20.3167,86.6167,25.11,50,4,3.88,IN,1704605054
59,edinburgh of the seven seas,-37.0676,-12.3116,15.9,72,100,3.16,SH,1704605054
60,ushuaia,-54.8,-68.3,9.81,66,0,4.63,AR,1704604901
61,longyearbyen,78.2186,15.6401,-16.09,72,40,4.12,SJ,1704605054
62,newark,40.7357,-74.1724,3.47,88,100,8.23,US,1704605012
63,przysucha,51.3586,20.6289,-5.19,77,100,6.25,PL,1704604785
64,swakopmund,-22.6833,14.5333,17.96,86,24,2.65,NA,1704604994
65,bredasdorp,-34.5322,20.0403,16.24,79,100,3.93,ZA,1704605056
66,ad dawadimi,24.5077,44.3924,12.64,59,7,4.0,SA,1704605056
67,olonkinbyen,70.9221,-8.7187,-4.03,79,100,5.52,SJ,1704605056
68,nicoya,10.1483,-85.452,23.1,87,44,1.68,CR,1704604662
69,dogonbadan,30.3586,50.7981,7.05,93,0,0.0,IR,1704605057
70,carnarvon,-24.8667,113.6333,27.08,66,0,8.06,AU,1704605057
71,port alfred,-33.5906,26.891,20.66,82,21,1.34,ZA,1704605057
72,gisborne,-38.6533,178.0042,17.76,57,0,4.06,NZ,1704604882
73,tyukhtet,56.5389,89.3011,-15.17,97,98,1.98,RU,1704605058
74,uga,5.9358,7.0793,21.66,95,6,0.75,NG,1704605058
75,cole harbour,44.6724,-63.4751,-9.6,82,100,0.45,CA,1704605059
76,baiti,13.745,-14.7482,22.92,13,0,2.99,SN,1704605060
77,avarua,-21.2078,-159.775,26.03,94,75,5.66,CK,1704605060
78,erenhot,43.6475,111.9767,-9.52,68,4,3.84,CN,1704605061
79,uturoa,-16.7333,-151.4333,26.61,80,100,5.48,PF,1704605061
80,lyudinovo,53.8664,34.4478,-18.79,94,9,2.61,RU,1704605062
81,hasaki,35.7333,140.8333,11.27,57,74,6.84,JP,1704604991
82,coquimbo,-29.9533,-71.3436,16.85,82,0,1.54,CL,1704605062
83,ghadamis,30.1337,9.5007,9.08,41,82,4.85,LY,1704605063
84,kariong,-33.44,151.3011,29.1,59,85,2.24,AU,1704605063
85,mount gambier,-37.8333,140.7667,22.31,84,100,1.89,AU,1704605064
86,ocean city,39.2776,-74.5746,9.01,81,100,4.02,US,1704605064
87,utrik,11.2278,169.8474,26.7,70,64,7.59,MH,1704605065
88,papatowai,-46.5619,169.4708,15.9,70,67,2.72,NZ,1704605066
89,tangalle,6.024,80.7911,30.09,70,57,3.05,LK,1704605066
90,happy valley-goose bay,53.3168,-60.3315,-16.83,55,0,3.09,CA,1704605067
91,west island,-12.1568,96.8225,29.99,79,100,5.14,CC,1704605067
92,kirakira,-10.4544,161.9205,28.52,77,91,1.7,SB,1704605068
93,lebu,-37.6167,-73.65,14.78,95,15,1.67,CL,1704605068
94,hammerfest,70.6634,23.6821,-3.75,80,100,4.12,NO,1704605068
95,georgetown,5.4112,100.3354,29.97,79,20,4.12,MY,1704604971
96,port mathurin,-19.6833,63.4167,27.77,76,56,0.6,MU,1704605069
97,nar'yan-mar,67.6713,53.087,-16.05,95,16,3.13,RU,1704605070
98,remire-montjoly,4.9167,-52.2667,23.02,100,0,1.03,GF,1704605070
99,kingston,17.997,-76.7936,27.53,80,20,6.17,JM,1704604942
100,masterton,-40.9597,175.6575,19.94,35,8,3.21,NZ,1704605071
101,saarijarvi,62.7049,25.254,-31.91,96,17,1.58,FI,1704605072
102,troitskiy,57.0603,63.7481,-15.73,96,100,3.44,RU,1704605072
103,greenwood,34.1668,-82.1165,7.38,57,0,3.09,US,1704605073
104,san julian,21.0167,-102.1667,11.89,47,67,2.16,MX,1704605073
105,ust-nera,64.5667,143.2,-39.81,100,100,1.79,RU,1704605073
106,finley,46.154,-119.0339,4.6,79,0,5.14,US,1704605073
107,moree,-29.4667,149.85,31.77,32,91,3.57,AU,1704605074
108,klyuchi,52.2667,79.1667,-8.33,96,95,1.81,RU,1704605074
109,saipan,15.1355,145.701,29.39,74,40,4.63,MP,1704605075
110,hami,42.8,93.45,-2.69,53,88,1.4,CN,1704605075
111,marsh harbour,26.5412,-77.0636,24.02,86,75,7.71,BS,1704605076
112,mangaldai,26.4333,92.0333,21.87,41,0,2.3,IN,1704605076
113,newman,37.3138,-121.0208,7.19,92,83,1.79,US,1704605077
114,mersa matruh,31.3525,27.2453,14.58,43,10,7.45,EG,1704605077
115,tataouine,32.9297,10.4518,8.46,59,7,8.01,TN,1704604867
116,minas de marcona,-15.2119,-75.1103,17.24,87,74,4.88,PE,1704605079
117,luang prabang,19.8856,102.1347,26.98,54,20,2.06,LA,1704605079
118,le port,-20.9373,55.2919,28.0,82,77,1.54,RE,1704605079
119,margate,51.3813,1.3862,4.27,86,100,6.26,GB,1704605080
120,kapuskasing,49.4169,-82.4331,-12.95,85,100,4.12,CA,1704605080
121,dudinka,69.4058,86.1778,-20.77,98,100,8.05,RU,1704604987
122,colonia,50.9333,6.95,2.25,87,100,2.57,DE,1704605081
123,nguigmi,14.2495,13.1092,17.24,26,48,4.97,NE,1704605082
124,qaqortoq,60.7167,-46.0333,0.33,78,100,3.2,GL,1704605082
125,jayapura,-2.5333,140.7,31.66,91,100,1.17,ID,1704604939
126,santa cruz del sur,20.7147,-77.9956,23.75,82,0,2.17,CU,1704605083
127,uxbridge,42.0773,-71.6295,1.4,93,100,4.23,US,1704605083
128,crane,31.3974,-102.3501,5.49,48,0,1.69,US,1704605084
129,launceston,-41.45,147.1667,27.8,47,100,5.14,AU,1704605084
130,talara,-4.5772,-81.2719,23.05,83,79,6.38,PE,1704605085
131,mana,5.6592,-53.7767,24.67,86,91,3.96,GF,1704605085
132,rawai,7.7797,98.3253,30.06,74,19,4.8,TH,1704604880
133,colon,9.3592,-79.9014,23.84,89,95,3.58,PA,1704604857
134,aykhal,66.0,111.5,-24.22,97,100,4.43,RU,1704605086
135,bethel,41.3712,-73.414,1.23,86,100,5.66,US,1704605086
136,zaragoza,41.6561,-0.8773,7.16,73,20,8.75,ES,1704605087
137,hailar,49.2,119.7,-24.33,83,45,4.12,CN,1704605087
138,key west,24.5557,-81.7826,22.22,100,20,0.0,US,1704605088
139,keflavik,64.0049,-22.5624,5.95,100,75,13.89,IS,1704605089
140,chul'man,56.8479,124.9104,-28.55,97,100,0.58,RU,1704605089
141,retreat,38.8245,-85.8533,3.32,99,100,3.34,US,1704605089
142,antsiranana,-12.2787,49.2917,29.42,79,40,3.09,MG,1704605090
143,pushkar,26.5,74.55,15.66,31,0,1.27,IN,1704605091
144,alice springs,-23.7,133.8833,39.75,20,46,6.69,AU,1704605092
145,kapa'a,22.0752,-159.319,23.18,77,0,1.54,US,1704605092
146,la sierpe,2.8518,-77.6155,24.77,94,91,1.15,CO,1704605092
147,nova vicosa,-17.8919,-39.3719,24.64,93,99,3.0,BR,1704605093
148,kolonia,50.9333,6.95,3.1,86,100,2.57,DE,1704604810
149,mountain home,43.133,-115.6912,-0.29,95,100,10.8,US,1704605093
150,pangody,65.85,74.4859,-21.15,95,84,3.5,RU,1704605094
151,kashgar,39.4547,75.9797,-1.44,50,59,1.0,CN,1704605094
152,san antonio de pale,-1.4014,5.6325,27.04,73,63,3.11,GQ,1704605094
153,invercargill,-46.4,168.35,16.12,76,74,5.36,NZ,1704605095
154,rongelap,11.1635,166.8941,27.17,66,100,8.09,MH,1704605095
155,chonchi,-42.6128,-73.8092,11.73,82,94,0.61,CL,1704605095
156,saldanha,-33.0117,17.9442,18.03,89,100,8.33,ZA,1704605096
157,cangzhou,38.3167,116.8667,-2.24,58,1,0.34,CN,1704605096
158,saint-pierre,-21.3393,55.4781,27.82,74,100,6.69,RE,1704605096
159,acarau,-2.8856,-40.12,26.64,81,57,4.94,BR,1704605097
160,fort mcmurray,56.7268,-111.381,-20.23,84,100,5.14,CA,1704605097
161,iqaluit,63.7506,-68.5145,-24.15,77,0,2.57,CA,1704604809
162,selkirk,50.1436,-96.8845,-15.96,89,64,2.76,CA,1704605098
163,gibsons,49.3997,-123.5027,6.0,95,9,3.01,CA,1704604589
164,fortuna,40.5982,-124.1573,4.43,95,75,0.0,US,1704605098
165,horta,38.5333,-28.6333,13.9,80,100,2.68,PT,1704605099
166,toktogul,41.8708,72.9402,3.23,78,100,0.27,KG,1704605100
167,spring creek,40.7266,-115.5859,-4.55,92,100,4.13,US,1704605100
168,scarborough,54.2797,-0.4044,4.81,86,78,3.52,GB,1704605101
169,tambopata,-12.7333,-69.1833,22.78,98,83,1.23,PE,1704605102
170,san luis de la loma,17.2706,-100.8939,23.88,75,41,1.78,MX,1704605102
171,huangnihe,43.5583,128.0239,-16.3,79,96,6.41,CN,1704605102
172,beira,-19.8436,34.8389,25.32,82,6,0.83,MZ,1704605103
173,rio gallegos,-51.6226,-69.2181,12.03,47,0,2.06,AR,1704605103
174,edgewater,28.9889,-80.9023,19.01,89,78,3.63,US,1704605103
175,big spring,32.2504,-101.4787,0.25,86,1,2.57,US,1704605103
176,petawawa,45.9001,-77.3328,-9.12,88,100,0.89,CA,1704604853
177,gambela,8.25,34.5833,25.08,39,3,1.02,ET,1704605105
178,pontianak,-0.0333,109.3333,27.99,83,75,3.6,ID,1704605105
179,tulum,20.2167,-87.4667,25.48,86,0,3.54,MX,1704605106
180,nabire,-3.3667,135.4833,29.08,76,82,2.05,ID,1704605106
181,birao,10.2849,22.7882,14.99,27,20,2.89,CF,1704605107
182,huarmey,-10.0681,-78.1522,22.41,85,93,3.98,PE,1704605107
183,fengtai,39.5581,117.7492,-3.15,38,0,1.07,CN,1704605108
184,cabo san lucas,22.8909,-109.9124,20.98,52,100,1.05,MX,1704605109
185,simav,39.0882,28.9777,8.56,75,78,7.44,TR,1704605110
186,shingu,33.7333,135.9833,9.32,54,13,6.37,JP,1704604835
187,anar darah,32.7587,61.654,10.92,65,52,2.06,AF,1704605110
188,gebeit,21.0667,36.3167,16.66,72,0,1.68,SD,1704605110
189,darwin,-12.4611,130.8418,29.99,74,75,5.14,AU,1704605111
190,gizo,-8.103,156.8419,29.15,72,100,1.81,SB,1704605111
191,saint-philippe,-21.3585,55.7679,27.77,80,97,4.19,RE,1704605111
192,fernie,49.5,-115.0687,-0.89,97,100,1.65,CA,1704605112
193,khan yunis,31.3402,34.3063,16.56,55,4,4.13,PS,1704605112
194,coahuayana de hidalgo,18.7,-103.6583,22.12,84,54,1.57,MX,1704605113
195,tavda,58.0425,65.2726,-20.73,97,100,3.13,RU,1704605113
196,betioky,-23.7167,44.3833,27.37,71,36,2.45,MG,1704605114
197,smithers,54.7804,-127.1743,-4.82,100,100,0.0,CA,1704605115
198,porto novo,6.4965,2.6036,27.9,88,6,0.62,BJ,1704605116
199,sitka,57.0531,-135.33,-0.06,86,40,0.0,US,1704605116
200,howard springs,-12.497,131.047,29.95,76,100,2.83,AU,1704605117
201,khandyga,62.6667,135.6,-42.46,99,100,0.77,RU,1704605118
202,soroti,1.7146,33.6111,22.99,51,11,1.15,UG,1704605120
203,fisterra,42.9049,-9.2629,9.32,71,100,3.77,ES,1704605120
204,boden,65.8252,21.6886,-30.0,100,54,1.13,SE,1704605120
205,nyurba,63.2842,118.3319,-28.71,96,100,2.13,RU,1704605121
206,antalaha,-14.9003,50.2788,28.56,75,96,1.83,MG,1704605121
207,rikaze,29.25,88.8833,0.82,15,0,0.33,CN,1704604949
208,holmsund,63.706,20.3641,-20.03,68,0,0.0,SE,1704605122
209,suntar,62.1444,117.6319,-24.77,92,100,2.7,RU,1704605123
210,anloga,5.7947,0.8973,27.6,82,3,3.35,GH,1704605123
211,madang,-5.2246,145.7966,30.84,67,98,2.97,PG,1704605124
212,anadyr,64.75,177.4833,-11.72,92,75,7.0,RU,1704605124
213,isafjordur,66.0755,-23.124,2.06,86,88,4.85,IS,1704605125
214,bratslav,48.8226,28.9407,-0.56,93,100,7.26,UA,1704605125
215,aromashevo,56.8602,68.6375,-22.24,98,98,3.92,RU,1704604861
216,la ronge,55.1001,-105.2842,-18.86,78,100,2.57,CA,1704605126
217,larache,35.1932,-6.1557,10.99,64,100,2.46,MA,1704605126
218,genhe,50.7833,121.5167,-21.81,79,41,2.55,CN,1704605126
219,la dorada,5.4478,-74.6631,23.64,91,11,0.73,CO,1704605126
220,vilyuchinsk,52.9306,158.4028,-13.85,74,4,3.99,RU,1704605126
221,tamale,9.4008,-0.8393,25.06,23,47,2.28,GH,1704605127
222,port elizabeth,-33.918,25.5701,20.73,78,0,3.6,ZA,1704605114
223,ondjiva,-17.0667,15.7333,20.02,94,100,2.06,AO,1704605128
224,constantia,44.1833,28.65,9.38,85,94,4.59,RO,1704604942
225,paramaribo,5.8667,-55.1667,24.95,86,35,4.02,SR,1704605128
226,gamba,-2.65,10.0,25.24,82,100,1.64,GA,1704605129
227,haiku-pauwela,20.9219,-156.3051,23.01,78,0,2.57,US,1704605129
228,heber city,40.5069,-111.4132,-1.1,81,100,2.57,US,1704605129
229,youhao,47.8667,128.8333,-16.45,76,99,3.33,CN,1704605130
230,iskateley,67.6803,53.1512,-16.1,95,16,3.13,RU,1704605130
231,mombetsu,44.3525,143.3525,-1.99,93,75,1.54,JP,1704605001
232,sao vicente,-23.9631,-46.3919,25.15,26,32,1.45,BR,1704605131
233,miandrivazo,-19.5167,45.4667,29.06,72,83,0.17,MG,1704605132
234,cestos city,5.46,-9.5828,25.95,86,46,2.86,LR,1704605132
235,udachny,66.4167,112.4,-23.47,97,100,5.78,RU,1704605133
236,rusk,31.796,-95.1502,6.29,90,0,2.57,US,1704605133
237,mejit,10.2753,170.8646,26.9,64,47,7.68,MH,1704605134
238,luba,3.4568,8.5547,22.94,77,54,0.45,GQ,1704605134
239,bandarbeyla,9.4942,50.8122,25.25,62,36,9.11,SO,1704605135
240,petropavlovsk-kamchatsky,53.0452,158.6483,-14.67,78,0,5.36,RU,1704605135
241,kangding,30.0513,101.9603,10.47,23,9,1.33,CN,1704604916
242,imbituba,-28.24,-48.6703,22.06,92,20,5.42,BR,1704605136
243,iwanai,42.9744,140.5089,-0.24,86,99,2.83,JP,1704604992
244,hithadhoo,-0.6,73.0833,28.28,75,96,7.14,MV,1704605137
245,vila franca do campo,37.7167,-25.4333,18.27,99,100,6.31,PT,1704605138
246,veraval,20.9,70.3667,24.32,39,0,5.97,IN,1704605139
247,fort bragg,35.139,-79.006,8.22,93,20,1.54,US,1704605139
248,jamestown,42.097,-79.2353,-1.36,100,100,0.45,US,1704605139
249,floro,61.5996,5.0328,-0.02,55,100,5.14,NO,1704605140
250,corumba,-19.0092,-57.6533,26.48,66,13,0.69,BR,1704605140
251,odacho-oda,35.1833,132.5,6.43,55,100,12.56,JP,1704605141
252,kushiro,42.975,144.3747,1.53,64,40,2.06,JP,1704605141
253,poggiardo,40.0542,18.3791,13.04,82,60,4.82,IT,1704605141
254,woolgoolga,-30.1106,153.2007,26.13,57,57,5.13,AU,1704605142
255,dapa,9.7594,126.0531,27.06,84,100,3.8,PH,1704605143
256,sohna,28.25,77.0667,11.13,48,0,0.36,IN,1704605143
257,cruz alta,-28.6386,-53.6064,21.07,80,18,3.04,BR,1704605143
258,arkhangel'sk,64.5401,40.5433,-13.94,85,40,2.0,RU,1704605144
259,cadale,2.7603,46.3222,25.5,67,3,10.01,SO,1704605145
260,whitby,54.4877,-0.615,3.54,87,96,2.93,GB,1704605145
261,kuragino,53.8975,92.6725,-4.02,92,100,1.5,RU,1704605145
262,trairi,-3.2778,-39.2689,26.59,79,29,4.96,BR,1704605147
263,linxia chengguanzhen,35.6003,103.2064,2.54,29,26,1.13,CN,1704605147
264,piton saint-leu,-21.2196,55.3151,26.06,74,100,6.69,RE,1704605148
265,viedma,-40.8135,-62.9967,19.43,41,0,3.6,AR,1704605148
266,taroa,8.7058,171.2275,27.11,68,69,8.76,MH,1704605149
267,badger,64.8,-147.5333,-20.36,73,0,4.12,US,1704605150
268,karachayevsk,43.774,41.9142,5.38,46,100,3.14,RU,1704605150
269,chernushka,56.5072,56.0766,-19.3,99,100,1.95,RU,1704605151
270,rio grande,-32.035,-52.0986,23.3,91,90,5.81,BR,1704605151
271,el bauga,18.262,33.9081,18.76,52,23,3.68,SD,1704605152
272,belyy yar,53.6039,91.3903,-10.06,85,20,2.0,RU,1704605153
273,la passe,45.5549,-0.8967,3.13,87,14,4.27,FR,1704605153
274,nizhniy kuranakh,58.8353,125.4869,-27.34,95,83,0.68,RU,1704605153
275,okhotsk,59.3833,143.3,-29.27,82,2,4.74,RU,1704605154
276,bamyan,34.75,67.25,-4.41,71,7,2.05,AF,1704605154
277,bajil,15.0584,43.2851,23.74,72,2,1.05,YE,1704605155
278,macapa,0.0389,-51.0664,23.33,94,100,2.1,BR,1704605156
279,nuuk,64.1835,-51.7216,-3.66,68,100,7.2,GL,1704604913
280,punakha,27.5837,89.8598,16.74,41,17,1.39,BT,1704605156
281,villa gesell,-37.2639,-56.973,19.47,88,100,2.07,AR,1704605157
282,akureyri,65.6835,-18.0878,-8.04,79,0,2.06,IS,1704605157
283,coronel moldes,-33.6227,-64.5971,19.78,95,32,3.47,AR,1704605157
284,pedernales,18.0384,-71.744,24.82,67,1,1.6,DO,1704605158
285,arraial do cabo,-22.9661,-42.0278,23.71,86,55,1.97,BR,1704605159
286,herval,-32.0236,-53.3956,20.4,96,100,2.04,BR,1704605159
287,kalach,50.4258,41.0261,-6.02,92,100,5.51,RU,1704605160
288,peace river,56.2501,-117.286,-17.83,71,100,3.09,CA,1704605161
289,at taj,24.2049,23.2857,13.36,24,10,3.61,LY,1704605137
290,susuman,62.7833,148.1667,-37.03,100,99,0.27,RU,1704605163
291,nemuro,43.3236,145.575,0.52,68,7,5.45,JP,1704605163
292,bambanglipuro,-7.95,110.2833,27.01,73,100,1.14,ID,1704605163
293,kone,-21.0595,164.8658,29.39,63,50,1.1,NC,1704605164
294,lihue,21.9789,-159.3672,22.77,78,0,1.54,US,1704605165
295,istgah-e rah ahan-e garmsar,35.2346,52.3094,7.46,37,0,1.06,IR,1704605165
296,buka,40.8108,69.1986,10.42,47,100,0.83,UZ,1704605165
297,jasper,37.2001,-94.3502,3.33,83,100,3.6,US,1704605165
298,tanout,14.9709,8.8879,16.05,22,9,4.63,NE,1704605165
299,perry,37.2506,-83.1999,7.1,96,100,3.28,US,1704604865
300,belozersk,60.0326,37.7957,-28.9,100,71,1.34,RU,1704605166
301,boyolangu,-8.1181,111.8935,28.31,73,100,1.12,ID,1704605166
302,sarandi del yi,-33.35,-55.6333,20.54,88,59,3.32,UY,1704605167
303,stanley,54.868,-1.6985,1.55,96,75,2.06,GB,1704605167
304,ancud,-41.8697,-73.8203,13.2,80,89,1.42,CL,1704605168
305,palikir - national government center,6.9248,158.1611,30.47,62,20,7.72,FM,1704605168
306,sinabang,2.4803,96.3801,27.72,78,100,3.88,ID,1704605169
307,peterhead,57.5058,-1.7981,3.22,84,12,5.22,GB,1704605169
308,cromwell,41.5951,-72.6454,1.18,94,100,3.6,US,1704605169
309,dangriga,16.9692,-88.2321,24.83,85,2,0.52,BZ,1704605170
310,kolosovka,56.4678,73.611,-24.92,99,52,2.84,RU,1704605170
311,tambacounda,13.7539,-13.7586,22.84,14,0,3.06,SN,1704605170
312,whangarei,-35.7317,174.3239,22.35,67,11,3.48,NZ,1704605072
313,henderson,36.0397,-114.9819,12.77,25,40,13.38,US,1704604980
314,barra de santo antonio,-9.4047,-35.5072,23.6,83,4,3.88,BR,1704605171
315,al qadarif,14.0349,35.3834,20.8,36,4,2.72,SD,1704605172
316,paris,48.8534,2.3488,4.28,83,100,4.63,FR,1704604619
317,qobustan,40.0824,49.412,8.8,77,6,3.29,AZ,1704605172
318,riohacha,11.5444,-72.9072,26.07,80,7,7.14,CO,1704604927
319,nikolayevsk-on-amure,53.1406,140.73,-19.69,82,60,1.62,RU,1704605173
320,wynyard,-41.0,145.7167,18.43,98,100,4.23,AU,1704605174
321,portland,45.5234,-122.6762,5.41,95,100,4.47,US,1704604943
322,bowen,-20.0167,148.2333,29.07,70,93,7.68,AU,1704605175
323,wakkanai,45.4094,141.6739,-3.01,86,75,10.29,JP,1704605007
324,pyin oo lwin,22.0333,96.4667,20.54,44,1,0.6,MM,1704605176
325,atafu village,-8.5421,-172.5159,29.2,69,100,3.8,TK,1704605176
326,kittila,67.6647,24.8936,-17.44,77,0,0.51,FI,1704605177
327,lijiang,26.8688,100.2207,11.1,25,0,2.11,CN,1704605177
328,at taraf,25.3628,49.725,15.3,49,0,4.79,SA,1704605177
329,skare,55.3833,13.05,-7.01,88,46,6.1,SE,1704605177
330,quellon,-43.1167,-73.6167,10.92,84,58,1.46,CL,1704604982
331,tharangambadi,11.0319,79.8528,26.87,81,51,5.18,IN,1704605178
332,alaghsas,17.0187,8.0168,13.94,26,66,2.57,NE,1704605179
333,benghazi,32.1167,20.0667,16.05,57,22,10.08,LY,1704605179
334,namibe,-15.1961,12.1522,21.86,79,100,1.52,AO,1704605179
335,jiwani,25.05,61.7417,22.85,58,0,0.78,PK,1704605180
336,kiunga,-6.1219,141.2906,29.83,78,99,0.38,PG,1704605181
337,polyarnyy,69.1989,33.4478,-5.66,82,93,6.48,RU,1704605182
338,jahazpur,25.6167,75.2833,15.87,41,0,2.42,IN,1704605028
339,codrington,-38.2667,141.9667,19.14,97,100,3.12,AU,1704605183
340,port moresby,-9.4431,147.1797,27.68,78,40,1.54,PG,1704604927
341,bel ombre,-4.6167,55.4167,28.91,74,40,2.06,SC,1704605184
342,luderitz,-26.6481,15.1594,18.6,69,35,5.9,NA,1704605185
343,red hill,33.9996,-79.2581,12.17,35,27,3.29,US,1704605185
344,sao tome,0.3365,6.7273,26.63,80,78,2.8,ST,1704605186
345,geraldton,-28.7667,114.6,32.23,37,0,7.2,AU,1704605186
346,shawano,44.7822,-88.609,0.83,100,100,0.0,US,1704605187
347,kolwezi,-10.7148,25.4667,17.05,98,100,1.54,CD,1704605187
348,la asuncion,11.0333,-63.8628,25.33,86,7,4.98,VE,1704605188
349,tokoroa,-38.2333,175.8667,26.08,58,8,2.68,NZ,1704605189
350,shenjiamen,29.9576,122.298,8.13,61,5,7.3,CN,1704605189
351,paczkow,50.464,17.0066,-2.03,96,100,4.84,PL,1704605189
352,tual,-5.6667,132.75,28.89,75,98,3.37,ID,1704605190
353,blenheim,-41.516,173.9528,20.85,47,21,1.34,NZ,1704605190
354,powell,40.1578,-83.0752,1.54,96,100,0.89,US,1704605190
355,noshiro,40.2039,140.0242,0.46,51,84,8.65,JP,1704605191
356,santiago de cao,-7.9589,-79.2392,21.07,88,100,3.6,PE,1704605192
357,dunedin,-45.8742,170.5036,12.67,91,75,1.79,NZ,1704605043
358,navia,43.5354,-6.7194,6.67,85,70,1.13,ES,1704605193
359,nagqu,31.5,92.0,-8.68,32,10,2.06,CN,1704605193
360,severo-yeniseyskiy,60.3725,93.0408,-23.57,99,76,1.79,RU,1704605193
361,saynshand,44.8824,110.1163,-12.82,74,11,2.19,MN,1704605194
362,east end,34.5507,-92.341,3.2,94,40,2.6,US,1704605194
363,sabang,5.8933,95.3214,27.05,80,47,9.09,ID,1704605023
364,bairnsdale,-37.8333,147.6167,23.7,68,100,1.24,AU,1704605195
365,primero de mayo,-32.2552,-58.4228,23.64,68,50,2.45,AR,1704605196
366,yala,6.3333,101.25,27.2,83,100,3.0,TH,1704605196
367,plainview,40.7765,-73.4673,3.6,89,100,7.2,US,1704605196
368,gaigeturi,33.4644,126.3183,5.03,60,75,5.14,KR,1704605197
369,dwarka,22.2394,68.9678,22.37,43,0,8.23,IN,1704604408
370,kujang-up,39.8672,126.0303,-7.87,52,2,4.61,KP,1704605198
371,sur,22.5667,59.5289,23.24,58,0,2.8,OM,1704605199
372,jiaxing,30.7522,120.75,9.34,44,3,3.38,CN,1704605040
373,bamboo flat,11.7,92.7167,28.78,67,53,5.49,IN,1704605200
374,howrah,22.5892,88.3103,21.0,78,3,3.6,IN,1704605200
375,beloyarskiy,63.7119,66.6722,-32.22,100,48,1.34,RU,1704605201
376,pudozh,61.8099,36.5345,-31.7,100,41,0.45,RU,1704605202
377,egilsstadir,65.2653,-14.3948,-7.05,86,0,3.09,IS,1704605202
378,estevan,49.1334,-102.9842,-7.81,92,100,6.69,CA,1704605202
379,east london,-33.0153,27.9116,20.52,83,0,5.14,ZA,1704604892
380,uchaly,54.2996,59.4521,-8.43,96,100,1.75,RU,1704605203
381,mizdah,31.4451,12.9801,7.28,52,27,8.76,LY,1704605203
382,korpilahti,62.0167,25.55,-29.7,100,40,1.02,FI,1704605204
383,ulladulla,-35.35,150.4667,25.62,60,67,8.99,AU,1704605194
384,hilo,19.7297,-155.09,22.36,95,40,2.06,US,1704605204
385,ishigaki,24.3448,124.1572,20.07,64,75,6.17,JP,1704605204
386,kailua-kona,19.6406,-155.9956,24.98,90,20,1.54,US,1704605205
387,essaouira,31.5125,-9.77,8.72,76,100,2.06,MA,1704605205
388,senanga,-16.1167,23.2667,20.55,93,100,1.88,ZM,1704605206
389,bam,29.106,58.357,12.11,34,0,9.58,IR,1704605206
390,vredendal,-31.6683,18.5012,17.62,81,72,2.34,ZA,1704605206
391,santo antonio do ica,-3.1022,-67.9397,23.25,98,100,0.82,BR,1704605207
392,apalit,14.95,120.7833,31.19,53,97,5.61,PH,1704605208
393,nueva loja,0.0847,-76.8828,22.55,83,66,0.31,EC,1704605208
394,garissa,-0.4536,39.6401,26.98,64,90,2.22,KE,1704605208
395,al ghayzah,16.2079,52.176,22.94,32,11,5.68,YE,1704605208
396,boca suno,-0.7167,-77.1333,22.42,85,86,0.82,EC,1704605209
397,port saint john's,-31.6229,29.5448,23.04,76,98,2.74,ZA,1704605209
398,tolanaro,-25.0319,46.9987,26.04,83,20,8.23,MG,1704605210
399,colares,38.7992,-9.4469,8.52,82,95,3.13,PT,1704605211
400,san pedro,14.35,121.0167,31.57,62,20,4.92,PH,1704605211
401,"laikit, laikit ii (dimembe)",1.4792,124.9735,30.47,70,40,4.63,ID,1704605212
402,odesskoye,54.2111,72.9651,-15.55,96,59,3.85,RU,1704605212
403,crescent city,41.756,-124.2018,5.82,98,100,2.57,US,1704605214
404,voi,-3.3945,38.563,23.42,88,62,1.14,KE,1704605215
405,inarajan village,13.2736,144.7484,30.22,83,61,6.55,GU,1704605216
406,port lincoln,-34.7333,135.8667,21.67,75,53,6.01,AU,1704605216
407,muisne,0.6,-80.0333,25.17,89,100,2.25,EC,1704605216
408,chadan,51.2833,91.5833,-16.78,94,100,1.02,RU,1704605217
409,lusambo,-4.9667,23.45,21.07,98,100,0.6,CD,1704605217
410,luwuk,-0.9516,122.7875,29.27,79,81,0.67,ID,1704605217
411,mishelevka,52.8575,103.1719,-12.24,82,100,0.65,RU,1704605218
412,tofol,5.3248,163.0078,28.88,79,75,3.6,FM,1704605218
413,thief river falls,48.1191,-96.1812,-18.04,85,0,3.09,US,1704605219
414,caleta de carquin,-11.0925,-77.6267,22.01,86,100,3.94,PE,1704605219
415,kayangel,8.0823,134.7173,28.75,76,94,7.02,PW,1704605219
416,guiyang,26.5833,106.7167,9.27,100,100,3.0,CN,1704605031
417,greymouth,-42.4667,171.2,17.59,64,83,2.24,NZ,1704605220
418,freetown,8.484,-13.2299,24.84,94,20,1.54,SL,1704605221
419,sicuani,-14.2694,-71.2261,8.38,90,99,0.3,PE,1704605221
420,fauske,67.2588,15.3918,-1.79,79,100,3.45,NO,1704605223
421,wisbech,52.6662,0.1594,3.91,77,55,4.34,GB,1704605223
422,tippi,7.2,35.45,20.49,62,4,1.19,ET,1704605223
423,ende,-8.8432,121.6623,29.73,74,100,0.93,ID,1704605223
424,port pirie,-33.1833,138.0167,27.13,58,35,5.58,AU,1704605224
425,xiaolingwei,32.0333,118.85,6.99,37,1,3.43,CN,1704605224
426,vorgashor,67.5833,63.95,-22.54,100,100,4.35,RU,1704605224
427,ulanhot,46.0833,122.0833,-14.65,59,0,3.12,CN,1704605224
428,chernyshevskiy,63.0128,112.4714,-18.51,97,100,1.8,RU,1704605225
429,black point,-34.6187,137.8972,24.7,68,15,6.13,AU,1704605226
430,miyazaki,31.9111,131.4239,12.97,33,20,8.23,JP,1704605214
431,kupang,-10.1667,123.5833,33.32,70,40,5.14,ID,1704605030
432,tibati,6.4667,12.6333,17.34,25,31,0.44,CM,1704605227
433,walvis bay,-22.9575,14.5053,17.98,83,26,4.09,NA,1704605227
434,palmas,-10.2128,-48.3603,24.93,88,40,2.06,BR,1704605228
435,san agustin de valle fertil,-30.6335,-67.4682,25.3,63,48,1.53,AR,1704605228
436,ivdel',60.6911,60.4206,-23.87,98,100,0.89,RU,1704605229
437,asadabad,34.7824,48.1185,-4.03,45,0,1.09,IR,1704605229
438,chaiyaphum,15.75,102.0,29.33,41,40,4.42,TH,1704605230
439,richards bay,-28.783,32.0377,23.81,78,1,2.86,ZA,1704605230
440,bjelovar,45.8986,16.8489,4.59,90,100,6.96,HR,1704605230
441,wuyang,31.9925,116.2472,8.25,42,47,4.01,CN,1704605231
442,amga,60.8953,131.9608,-39.65,100,83,0.12,RU,1704605231
443,souillac,-20.5167,57.5167,28.21,78,75,2.57,MU,1704605232
444,nizhnyaya tavda,57.6731,66.1725,-21.48,98,100,2.93,RU,1704605232
445,akrehamn,59.2667,5.1833,-3.1,63,22,5.14,NO,1704605233
446,grand forks,47.9417,-97.4337,-15.72,83,40,3.6,US,1704605234
447,lloydminster,53.2835,-110.0016,-9.88,85,100,3.09,CA,1704605234
448,de aar,-30.6497,24.0123,24.01,16,0,0.54,ZA,1704605234
449,banda aceh,5.5577,95.3222,28.27,72,88,5.28,ID,1704605235
450,bloomsburg,41.0037,-76.4549,2.27,95,100,0.84,US,1704605236
451,yangambi,0.8102,24.4336,21.39,78,19,1.18,CD,1704605146
452,hailin,44.5833,129.4167,-15.49,74,96,5.81,CN,1704605236
453,naze,28.3667,129.4833,16.51,53,42,7.52,JP,1704605144
454,ola,59.5833,151.2833,-31.59,86,12,3.26,RU,1704605237
455,barra do bugres,-15.0725,-57.1811,24.53,86,94,1.76,BR,1704605237
456,jatoi shimali,29.5165,70.8503,16.39,26,0,1.19,PK,1704605237
457,sai buri,6.7013,101.6168,29.84,81,100,5.52,TH,1704605238
458,lerwick,60.1545,-1.1494,6.0,81,96,10.47,GB,1704605238
459,cidreira,-30.1811,-50.2056,22.41,91,25,8.29,BR,1704605239
460,nea alikarnassos,35.3333,25.1667,17.82,72,40,7.72,GR,1704605239
461,kalevala,65.2,31.1667,-19.39,96,77,1.79,RU,1704605240
462,smara,26.7384,-11.6719,12.31,83,99,2.08,EH,1704605240
463,ambovombe,-25.1667,46.0833,25.81,77,16,1.99,MG,1704605240
464,tawau,4.2498,117.8871,26.07,71,72,1.0,MY,1704605241
465,ghat,24.9647,10.1728,11.9,33,59,1.61,LY,1704605241
466,solotvyno,47.946,23.8703,4.33,90,100,1.4,UA,1704605242
467,plastun,44.7561,136.2939,-9.12,43,83,5.16,RU,1704605242
468,tabou,4.423,-7.3528,26.65,85,17,2.89,CI,1704605243
469,lethem,3.3803,-59.7968,26.01,67,84,5.54,GY,1704605244
470,flin flon,54.7682,-101.865,-22.39,100,80,1.57,CA,1704605245
471,rodolfo sanchez taboada,31.7167,-116.5667,11.72,53,0,0.84,MX,1704605245
472,beaune,47.0833,4.75,0.8,89,100,6.87,FR,1704605247
473,touros,-5.1989,-35.4608,26.25,81,71,4.44,BR,1704605247
474,shizunai-furukawacho,42.3339,142.3669,1.26,74,100,3.98,JP,1704605248
475,hutchinson,38.0608,-97.9298,-0.71,84,0,3.6,US,1704605160
476,dzuunharaa,48.8523,106.4579,-14.26,75,62,0.53,MN,1704605249
477,cockburn town,21.4612,-71.1419,25.53,78,4,7.26,TC,1704605249
478,las tablas,7.7667,-80.2833,24.54,99,83,5.68,PA,1704605250
479,tralee,52.2704,-9.7026,2.39,89,30,2.04,IE,1704605250
480,tshabong,-26.05,22.45,27.24,40,69,3.31,BW,1704605250
481,isla vista,34.4133,-119.861,13.94,74,75,6.69,US,1704605251
482,malpica,43.3228,-8.8105,7.43,81,100,2.66,ES,1704605251
483,ginir,7.1333,40.7,16.89,45,68,1.22,ET,1704605252
484,veinticinco de mayo,-35.4323,-60.1727,18.88,87,38,3.47,AR,1704605252
485,usehat,27.8167,79.25,16.03,53,0,1.08,IN,1704605253
486,samalut,28.3121,30.7101,13.45,68,0,1.77,EG,1704605253
487,chepo,9.1667,-79.1,26.1,94,62,2.65,PA,1704605253
488,yarmouth,41.7057,-70.2286,3.34,90,100,6.17,US,1704605254
489,bethanie,-26.4833,17.15,23.31,26,73,0.77,NA,1704605254
490,ibiza,38.9088,1.433,12.9,53,0,11.32,ES,1704605255
491,mogocha,53.7333,119.7667,-22.37,77,85,0.73,RU,1704605255
492,robore,-18.3333,-59.75,25.13,79,3,1.97,BO,1704605256
493,lubango,-14.9172,13.4925,15.92,94,75,2.06,AO,1704605257
494,chinde,26.8418,88.0763,15.9,37,1,2.52,NP,1704605258
495,vorkuta,67.5,64.0,-22.34,99,100,4.46,RU,1704605165
496,twin falls,42.3505,-114.6445,-2.26,93,100,7.72,US,1704605259
497,mahajanga,-15.7167,46.3167,30.01,74,20,2.57,MG,1704605259
498,zavetnoye,47.1194,43.8903,2.3,80,100,3.92,RU,1704605260
499,midvagur,62.0511,-7.1939,1.46,80,20,0.0,FO,1704605260
500,verkhneyarkeyevo,55.4505,54.3145,-19.64,98,100,2.97,RU,1704605261
501,sao geraldo do araguaia,-6.4006,-48.555,23.34,94,78,1.01,BR,1704605261
502,melekeok village,7.4957,134.6367,31.31,66,75,4.63,PW,1704605261
503,kaser,41.1212,-74.0671,2.02,89,100,0.45,US,1704605211
504,kerikeri,-35.2268,173.9474,21.37,70,14,3.15,NZ,1704605262
505,vila velha,-20.3297,-40.2925,24.41,84,40,2.06,BR,1704605107
506,bardai,11.65,7.2333,15.6,23,11,4.05,NG,1704605262
507,arsk,56.0915,49.8778,-23.25,100,98,2.62,RU,1704605263
508,pingliang,35.5392,106.6861,4.06,46,19,2.39,CN,1704604990
509,chernyakhovsk,54.6335,21.8156,-14.79,92,62,3.81,RU,1704605264
510,daru,-9.0763,143.2092,27.36,85,92,1.39,PG,1704605264
511,punta del este,-34.9667,-54.95,23.06,84,100,5.66,UY,1704605265
512,laguna,38.421,-121.4238,6.12,95,100,0.0,US,1704605118
513,san angelo,31.4638,-100.437,3.67,79,0,2.57,US,1704605266
514,mata-utu,-13.2816,-176.1745,28.78,77,45,4.46,WF,1704605267
515,la paz,-16.5,-68.15,10.32,73,20,2.06,BO,1704605267
516,xining,36.6167,101.7667,0.05,22,1,0.96,CN,1704605268
517,simanggang,1.2472,111.4528,25.99,94,40,1.54,MY,1704605268
518,uliastay,47.7417,96.8444,-6.59,71,100,0.75,MN,1704605269
519,international falls,48.6011,-93.411,-7.9,84,100,4.12,US,1704605269
520,pekanbaru,0.5333,101.45,26.18,94,75,3.6,ID,1704605269
521,tazovsky,67.4667,78.7,-21.49,99,24,4.67,RU,1704605270
522,tabuk,17.4189,121.4443,24.54,71,87,1.94,PH,1704605270
523,berezovyy,51.6667,135.7,-17.15,79,62,1.08,RU,1704605271
524,papao,-17.75,-149.55,27.82,80,100,4.67,PF,1704605271
525,chimbote,-9.0853,-78.5783,21.75,87,61,3.02,PE,1704605273
526,semirom,31.4167,51.5667,0.02,40,0,1.52,IR,1704605273
527,puerto lempira,15.2667,-83.7667,23.5,91,6,2.71,HN,1704605273
528,lonato,45.4648,10.4739,7.88,97,100,2.57,IT,1704605274
529,winsen,53.3667,10.2167,-0.01,91,53,3.14,DE,1704605275
530,zarah sharan,33.1467,68.7917,3.94,49,63,0.22,AF,1704605275
531,hedemora,60.2797,15.9886,-14.8,100,12,1.41,SE,1704605275
532,al jawf,29.5,38.75,10.75,60,0,4.06,SA,1704605276
533,sao jose da coroa grande,-8.8978,-35.1478,25.55,79,11,3.49,BR,1704605276
534,kendari,-3.945,122.4989,28.41,74,100,2.07,ID,1704605277
535,taoudenni,22.6783,-3.9836,18.59,25,0,2.56,ML,1704605277
536,weno,7.4515,151.8468,28.44,68,77,9.7,FM,1704605277
537,nadi,-17.8,177.4167,30.0,74,20,6.17,FJ,1704605277
538,entebbe,0.0644,32.4469,21.18,73,20,2.57,UG,1704605278
539,tindouf,27.6711,-8.1474,8.25,71,0,3.09,DZ,1704605278
540,santaquin,39.9755,-111.7852,0.11,66,100,1.79,US,1704605279
541,tazacorte,28.629,-17.9293,16.54,72,0,3.6,ES,1704605279
542,benjamin constant,-4.3831,-70.0311,25.07,99,50,1.14,BR,1704605280
543,quang ngai,15.1167,108.8,24.24,81,98,2.66,VN,1704605042
544,kodinsk,58.6881,99.1844,-10.31,88,100,5.2,RU,1704605280
545,boa vista,2.8197,-60.6733,26.99,65,0,3.09,BR,1704605281
546,yanchep,-31.55,115.6833,37.79,35,50,4.79,AU,1704605281
547,new norfolk,-42.7826,147.0587,24.72,89,100,0.58,AU,1704605281
548,araguaina,-7.1911,-48.2072,23.64,87,89,1.2,BR,1704605282
549,yemetsk,63.4721,41.7941,-22.37,100,100,1.26,RU,1704605283
550,nova xavantina,-14.6667,-52.35,22.44,96,42,0.88,BR,1704605283
551,pokhara,28.2333,83.9833,18.54,35,0,2.47,NP,1704605038
552,boali,4.8005,18.1275,20.4,25,6,1.88,CF,1704605283
553,carlisle,40.2015,-77.1889,2.02,91,100,1.31,US,1704605284
554,keban,38.7978,38.7336,4.38,64,8,1.46,TR,1704605285
555,mossel bay,-34.1831,22.146,20.96,89,100,4.97,ZA,1704605286
556,flying fish cove,-10.4217,105.6791,26.82,94,100,4.12,CX,1704605286
557,mar del plata,-38.0023,-57.5575,20.05,94,0,0.45,AR,1704605286
558,baracoa,20.3467,-74.4958,23.53,88,16,2.13,CU,1704605286
559,ras al khaimah city,25.7895,55.9432,21.12,64,0,5.14,AE,1704605287
560,holzwickede,51.5,7.6333,0.82,94,100,3.6,DE,1704605287
561,erraguntla,14.6333,78.5333,25.82,58,42,5.7,IN,1704605288
562,shubarshi,48.5872,57.1869,1.95,96,100,6.11,KZ,1704605289
563,siwa oasis,29.2041,25.5195,12.5,31,0,3.2,EG,1704605289
564,san antonio,29.4241,-98.4936,11.25,71,0,0.0,US,1704605290
565,tyul'gan,52.3405,56.166,-9.94,97,99,3.77,RU,1704605291
566,luganville,-15.5333,167.1667,28.97,76,88,2.16,VU,1704605291
